SiteId,Label,Lon,Lat
urn:cite:ptolemy:lonlat.pt_ll_5954,'Boreion akron',76.72,19.08
urn:cite:ptolemy:lonlat.pt_ll_6236,'Boreion akron',76.72,19.08
urn:cite:ptolemy:lonlat.pt_ll_5047,'Galiba akra',75.28,18.36
urn:cite:ptolemy:lonlat.pt_ll_5048,'Margana polis',74.92,17.52
urn:cite:ptolemy:lonlat.pt_ll_5049,'Iōgana polis',74.8,16.44
urn:cite:ptolemy:lonlat.pt_ll_5050,'Anarismoundou akron',73.84,15.66
urn:cite:ptolemy:lonlat.pt_ll_5051,'Soana potamou ekbolai',74.08,14.58
urn:cite:ptolemy:lonlat.pt_ll_5052,'hai pēgai tou potamou',75.64,12.24
urn:cite:ptolemy:lonlat.pt_ll_5053,'Sindokanda polis',73.84,13.68
urn:cite:ptolemy:lonlat.pt_ll_5054,'Priapidos limēn',73.84,12.72
urn:cite:ptolemy:lonlat.pt_ll_5634,'Anoubiggara',73.12,12.00
urn:cite:ptolemy:lonlat.pt_ll_5055,'Dios akra',72.76,10.80
urn:cite:ptolemy:lonlat.pt_ll_5056,'Prasōdēs kolpos',73.12,11.52
urn:cite:ptolemy:lonlat.pt_ll_5636,'Noubartha polis',73.6,10.08
urn:cite:ptolemy:lonlat.pt_ll_5057,'Azanou potamou ekbolai',74.8,10.80
urn:cite:ptolemy:lonlat.pt_ll_5058,'hai pēgai tou potamou',76.72,10.80
urn:cite:ptolemy:lonlat.pt_ll_5059,'Odōka polis',74.56,11.52
urn:cite:ptolemy:lonlat.pt_ll_5060,'Orneōn akra',76.0,11.88
urn:cite:ptolemy:lonlat.pt_ll_5637,'Dagana polis hiera Selēnēs',77.2,11.52
urn:cite:ptolemy:lonlat.pt_ll_5638,'Korkobara polis',77.92,11.76
urn:cite:ptolemy:lonlat.pt_ll_5061,'Dionusou akron',79.6,11.16
urn:cite:ptolemy:lonlat.pt_ll_5639,'Kētaion akron',81.4,11.76
urn:cite:ptolemy:lonlat.pt_ll_5062,'Barakou potamou ekbolai',80.68,10.80
urn:cite:ptolemy:lonlat.pt_ll_5063,'hai pēgai tou potamou',78.16,11.52
urn:cite:ptolemy:lonlat.pt_ll_5064,'Bōkana polis',80.32,11.04
urn:cite:ptolemy:lonlat.pt_ll_5640,'Mardou limēn ē Mardoulamnē',80.32,11.76
urn:cite:ptolemy:lonlat.pt_ll_5641,'Abaratha polis',79.6,12.42
urn:cite:ptolemy:lonlat.pt_ll_5065,'Hēliou limēn',79.6,12.96
urn:cite:ptolemy:lonlat.pt_ll_5066,'Aigialos Megas',79.6,13.20
urn:cite:ptolemy:lonlat.pt_ll_5067,'Prokouri polis',80.32,14.16
urn:cite:ptolemy:lonlat.pt_ll_5068,'Rhizala limēn',80.08,14.76
urn:cite:ptolemy:lonlat.pt_ll_5069,'Oxeia akra',79.6,15.48
urn:cite:ptolemy:lonlat.pt_ll_5070,'Gaggou potamou ekbolai',78.88,15.36
urn:cite:ptolemy:lonlat.pt_ll_5071,'hai pēgai tou potamou',77.44,15.30
urn:cite:ptolemy:lonlat.pt_ll_5072,'Spatana limēn',78.88,15.84
urn:cite:ptolemy:lonlat.pt_ll_5642,'Nagadiba polis ē Nagadina',78.88,16.20
urn:cite:ptolemy:lonlat.pt_ll_5073,'Pati kolpos',78.52,16.92
urn:cite:ptolemy:lonlat.pt_ll_5074,'Anoubiggara polis',78.64,17.04
urn:cite:ptolemy:lonlat.pt_ll_5075,'Modouttou emporion',78.16,18.24
urn:cite:ptolemy:lonlat.pt_ll_5076,'Phasios potamou ekbolai',77.44,18.24
urn:cite:ptolemy:lonlat.pt_ll_5077,'hai pēgai tou potamou',76.72,15.84
urn:cite:ptolemy:lonlat.pt_ll_5078,'Talakōruemporion',76.96,18.48
urn:cite:ptolemy:lonlat.pt_ll_5079,'Anourogrammon basileion',75.4,16.32
urn:cite:ptolemy:lonlat.pt_ll_5080,'Maagrammon mētropolis',77.44,15.36
urn:cite:ptolemy:lonlat.pt_ll_5081,'Adeisamon',78.88,13.68
urn:cite:ptolemy:lonlat.pt_ll_5082,'Podoukē',75.28,12.72
urn:cite:ptolemy:lonlat.pt_ll_5083,'Oulispada',76.72,12.72
urn:cite:ptolemy:lonlat.pt_ll_5643,'Nakadouba',78.52,10.08
urn:cite:ptolemy:lonlat.pt_ll_5759,'Ouaggalia',72.58,18.24
urn:cite:ptolemy:lonlat.pt_ll_5084,'Kanathra',73.6,18.18
urn:cite:ptolemy:lonlat.pt_ll_5085,'Aigidiōn',70.96,16.20
urn:cite:ptolemy:lonlat.pt_ll_5086,'Orneōn',71.68,16.20
urn:cite:ptolemy:lonlat.pt_ll_5087,'Monakhē',69.7,12.96
urn:cite:ptolemy:lonlat.pt_ll_5088,'Amminē',70.24,13.32
urn:cite:ptolemy:lonlat.pt_ll_5644,'Karkos',71.32,10.56
urn:cite:ptolemy:lonlat.pt_ll_5645,'Philēkos',69.88,12.00
urn:cite:ptolemy:lonlat.pt_ll_5089,'Eirēnē',72.4,11.88
urn:cite:ptolemy:lonlat.pt_ll_5090,'Kalandadroua',73.12,14.04
urn:cite:ptolemy:lonlat.pt_ll_5091,'Abrana',76.0,13.20
urn:cite:ptolemy:lonlat.pt_ll_5092,'Bassa',76.72,14.76
urn:cite:ptolemy:lonlat.pt_ll_5093,'Balaka',78.88,14.04
urn:cite:ptolemy:lonlat.pt_ll_5094,'Alaba',80.32,12.96
urn:cite:ptolemy:lonlat.pt_ll_5095,'Goumara',81.76,11.28
urn:cite:ptolemy:lonlat.pt_ll_5760,'Zaba',83.2,10.08
urn:cite:ptolemy:lonlat.pt_ll_5096,'Zibala',83.2,13.14
urn:cite:ptolemy:lonlat.pt_ll_5097,'Nagadiba',83.2,16.20
urn:cite:ptolemy:lonlat.pt_ll_5098,'Sousouara',83.2,18.18
